{
"type": "FeatureCollection",
"name": "Syriac-Manuscripts-Data",
"crs": { "type": "name", "properties": { "name": "urn:ogc:def:crs:OGC:1.3:CRS84" } },
"features": [
{ "type": "Feature", "properties": { "Wright_Number": 1, "Shelfmark": "Egerton 704", "Place_Name": "S. Mary Deipara", "Modern_Place": "S. Mary Deipara", "Place_Type": "Monastery", "Longitude": 30.354167, "Latitude": 30.317778, "YearLow": 1600, "YearHigh": 1700, "CenturyS": 17, "CenturyF": 18 }, "geometry": { "type": "Point", "coordinates": [ 30.35417, 30.31778 ] } },
{ "type": "Feature", "properties": { "Wright_Number": 1, "Shelfmark": "Egerton 704", "Place_Name": "Jerusalem", "Modern_Place": "Jerusalem", "Place_Type": "City", "Longitude": 35.216667, "Latitude": 31.783333, "YearLow": 1600, "YearHigh": 1700, "CenturyS": 17, "CenturyF": 18 }, "geometry": { "type": "Point", "coordinates": [ 35.21667, 31.78333 ] } },
{ "type": "Feature", "properties": { "Wright_Number": 3, "Shelfmark": "BL Add 14425", "Place_Name": "Amid", "Modern_Place": "Diyarbakir", "Place_Type": "City", "Longitude": 40.24, "Latitude": 37.91, "YearLow": 464, "YearHigh": 464, "CenturyS": 5, "CenturyF": 5 }, "geometry": { "type": "Point", "coordinates": [ 40.24, 37.91 ] } },
{ "type": "Feature", "properties": { "Wright_Number": 7, "Shelfmark": "BL Add 12172", "Place_Name": "Scete", "Modern_Place": "Wadi El Natrun", "Place_Type": "Region", "Longitude": 30.333333, "Latitude": 30.583333, "YearLow": 500, "YearHigh": 700, "CenturyS": 6, "CenturyF": 8 }, "geometry": { "type": "Point", "coordinates": [ 30.33333, 30.58333 ] } },
{ "type": "Feature", "properties": { "Wright_Number": 7, "Shelfmark": "BL Add 12172", "Place_Name": "S. Mary Deipara", "Modern_Place": "S. Mary Deipara", "Place_Type": "Monastery", "Longitude": 30.354167, "Latitude": 30.317778, "YearLow": 500, "YearHigh": 700, "CenturyS": 6, "CenturyF": 8 }, "geometry": { "type": "Point", "coordinates": [ 30.35417, 30.31778 ] } },
{ "type": "Feature", "properties": { "Wright_Number": 9, "Shelfmark": "BL Add 12133", "Place_Name": "S. Mary Deipara", "Modern_Place": "S. Mary Deipara", "Place_Type": "Monastery", "Longitude": 30.354167, "Latitude": 30.317778, "YearLow": 932, "YearHigh": 932, "CenturyS": 10, "CenturyF": 10 }, "geometry": { "type": "Point", "coordinates": [ 30.35417, 30.31778 ] } },
{ "type": "Feature", "properties": { "Wright_Number": 11, "Shelfmark": "BL Add 14428", "Place_Name": "Ras'ain", "Modern_Place": "Ras al-Ayn", "Place_Type": "City", "Longitude": 40.0706, "Latitude": 36.8503, "YearLow": 724, "YearHigh": 726, "CenturyS": 8, "CenturyF": 8 }, "geometry": { "type": "Point", "coordinates": [ 40.0706, 36.8503 ] } },
{ "type": "Feature", "properties": { "Wright_Number": 11, "Shelfmark": "BL Add 14428", "Place_Name": "Beth Severina", "Modern_Place": "Haberli", "Place_Type": "City", "Longitude": 41.616667, "Latitude": 37.316667, "YearLow": 724, "YearHigh": 726, "CenturyS": 8, "CenturyF": 8 }, "geometry": { "type": "Point", "coordinates": [ 41.61667, 37.31667 ] } },
{ "type": "Feature", "properties": { "Wright_Number": 11, "Shelfmark": "BL Add 14428", "Place_Name": "Mar Gabriel", "Modern_Place": "Mor Gabriel", "Place_Type": "Monastery", "Longitude": 41.5385, "Latitude": 37.321778, "YearLow": 724, "YearHigh": 726, "CenturyS": 8, "CenturyF": 8 }, "geometry": { "type": "Point", "coordinates": [ 41.5385, 37.32178 ] } },
{ "type": "Feature", "properties": { "Wright_Number": 17, "Shelfmark": "BL Add 17102", "Place_Name": "Mar Daniel", "Modern_Place": "Mount Mar Daniel", "Place_Type": "Monastery", "Longitude": 43.453611, "Latitude": 36.373056, "YearLow": 910, "YearHigh": 910, "CenturyS": 10, "CenturyF": 10 }, "geometry": { "type": "Point", "coordinates": [ 43.45361, 36.37306 ] } },
{ "type": "Feature", "properties": { "Wright_Number": 17, "Shelfmark": "BL Add 17104", "Place_Name": "Tagrit", "Modern_Place": "Tikrit", "Place_Type": "City", "Longitude": 43.68, "Latitude": 34.61, "YearLow": 910, "YearHigh": 910, "CenturyS": 10, "CenturyF": 10 }, "geometry": { "type": "Point", "coordinates": [ 43.68, 34.61 ] } },
{ "type": "Feature", "properties": { "Wright_Number": 17, "Shelfmark": "BL Add 17105", "Place_Name": "S. Mary Deipara", "Modern_Place": "S. Mary Deipara", "Place_Type": "Monastery", "Longitude": 30.354167, "Latitude": 30.317778, "YearLow": 910, "YearHigh": 910, "CenturyS": 10, "CenturyF": 10 }, "geometry": { "type": "Point", "coordinates": [ 30.35417, 30.31778 ] } },
{ "type": "Feature", "properties": { "Wright_Number": 22, "Shelfmark": "BL Add 14431", "Place_Name": "Tagrit", "Modern_Place": "Tikrit", "Place_Type": "City", "Longitude": 43.68, "Latitude": 34.61, "YearLow": 545, "YearHigh": 545, "CenturyS": 6, "CenturyF": 6 }, "geometry": { "type": "Point", "coordinates": [ 43.68, 34.61 ] } },
{ "type": "Feature", "properties": { "Wright_Number": 22, "Shelfmark": "BL Add 14431", "Place_Name": "S. Mary Deipara", "Modern_Place": "S. Mary Deipara", "Place_Type": "Monastery", "Longitude": 30.354167, "Latitude": 30.317778, "YearLow": 545, "YearHigh": 545, "CenturyS": 6, "CenturyF": 6 }, "geometry": { "type": "Point", "coordinates": [ 30.35417, 30.31778 ] } },
{ "type": "Feature", "properties": { "Wright_Number": 23, "Shelfmark": "BL Add 14442", "Place_Name": "S. Mary Deipara", "Modern_Place": "S. Mary Deipara", "Place_Type": "Monastery", "Longitude": 30.354167, "Latitude": 30.317778, "YearLow": 500, "YearHigh": 700, "CenturyS": 6, "CenturyF": 8 }, "geometry": { "type": "Point", "coordinates": [ 30.35417, 30.31778 ] } },
{ "type": "Feature", "properties": { "Wright_Number": 24, "Shelfmark": "BL Add 14430", "Place_Name": "Specula", "Modern_Place": "Ras al-Ayn", "Place_Type": "Monastery", "Longitude": 40.0706, "Latitude": 36.8503, "YearLow": 724, "YearHigh": 724, "CenturyS": 8, "CenturyF": 8 }, "geometry": { "type": "Point", "coordinates": [ 40.0706, 36.8503 ] } },
{ "type": "Feature", "properties": { "Wright_Number": 24, "Shelfmark": "BL Add 14430", "Place_Name": "Rasain", "Modern_Place": "Ras al-Ayn", "Place_Type": "City", "Longitude": 40.0706, "Latitude": 36.8503, "YearLow": 724, "YearHigh": 724, "CenturyS": 8, "CenturyF": 8 }, "geometry": { "type": "Point", "coordinates": [ 40.0706, 36.8503 ] } },
{ "type": "Feature", "properties": { "Wright_Number": 36, "Shelfmark": "BL Add 17109", "Place_Name": "Tagrit", "Modern_Place": "Tikrit", "Place_Type": "City", "Longitude": 43.68, "Latitude": 34.61, "YearLow": 500, "YearHigh": 600, "CenturyS": 6, "CenturyF": 7 }, "geometry": { "type": "Point", "coordinates": [ 43.68, 34.61 ] } },
{ "type": "Feature", "properties": { "Wright_Number": 36, "Shelfmark": "BL Add 17109", "Place_Name": "S. Mary Deipara", "Modern_Place": "S. Mary Deipara", "Place_Type": "Monastery", "Longitude": 30.354167, "Latitude": 30.317778, "YearLow": 500, "YearHigh": 600, "CenturyS": 6, "CenturyF": 7 }, "geometry": { "type": "Point", "coordinates": [ 30.35417, 30.31778 ] } },
{ "type": "Feature", "properties": { "Wright_Number": 38, "Shelfmark": "BL Add 17107", "Place_Name": "Edessa", "Modern_Place": "Şanlıurfa", "Place_Type": "City", "Longitude": 38.8, "Latitude": 37.15, "YearLow": 541, "YearHigh": 541, "CenturyS": 6, "CenturyF": 6 }, "geometry": { "type": "Point", "coordinates": [ 38.8, 37.15 ] } },
{ "type": "Feature", "properties": { "Wright_Number": 38, "Shelfmark": "BL Add 17107", "Place_Name": "Hadatha", "Modern_Place": "Alsafina", "Place_Type": "City", "Longitude": 43.353, "Latitude": 35.983, "YearLow": 541, "YearHigh": 541, "CenturyS": 6, "CenturyF": 6 }, "geometry": { "type": "Point", "coordinates": [ 43.353, 35.983 ] } },
{ "type": "Feature", "properties": { "Wright_Number": 40, "Shelfmark": "BL Add 12136", "Place_Name": "Specula", "Modern_Place": "Ras al-Ayn", "Place_Type": "Monastery", "Longitude": 40.0706, "Latitude": 36.8503, "YearLow": 726, "YearHigh": 726, "CenturyS": 8, "CenturyF": 8 }, "geometry": { "type": "Point", "coordinates": [ 40.0706, 36.8503 ] } },
{ "type": "Feature", "properties": { "Wright_Number": 41, "Shelfmark": "BL Add 14445", "Place_Name": "Convent of the Orientals", "Modern_Place": "Şanlıurfa", "Place_Type": "Monastery", "Longitude": 38.8, "Latitude": 37.15, "YearLow": 532, "YearHigh": 532, "CenturyS": 6, "CenturyF": 6 }, "geometry": { "type": "Point", "coordinates": [ 38.8, 37.15 ] } },
{ "type": "Feature", "properties": { "Wright_Number": 41, "Shelfmark": "BL Add 14445", "Place_Name": "S. Mary Deipara", "Modern_Place": "S. Mary Deipara", "Place_Type": "Monastery", "Longitude": 30.354167, "Latitude": 30.317778, "YearLow": 532, "YearHigh": 532, "CenturyS": 6, "CenturyF": 6 }, "geometry": { "type": "Point", "coordinates": [ 30.35417, 30.31778 ] } },
{ "type": "Feature", "properties": { "Wright_Number": 52, "Shelfmark": "BL Add 17103", "Place_Name": "Mar Cyriacus at Tella Haphikha", "Modern_Place": "Bağlarbaşı", "Place_Type": "Monastery", "Longitude": 41.456389, "Latitude": 37.456389, "YearLow": 700, "YearHigh": 800, "CenturyS": 8, "CenturyF": 9 }, "geometry": { "type": "Point", "coordinates": [ 41.45639, 37.45639 ] } },
{ "type": "Feature", "properties": { "Wright_Number": 53, "Shelfmark": "BL Add 14437", "Place_Name": "Caesarea Palestina", "Modern_Place": "Caesarea", "Place_Type": "City", "Longitude": 34.891667, "Latitude": 32.5, "YearLow": 700, "YearHigh": 800, "CenturyS": 8, "CenturyF": 9 }, "geometry": { "type": "Point", "coordinates": [ 34.89167, 32.5 ] } },
{ "type": "Feature", "properties": { "Wright_Number": 53, "Shelfmark": "BL Add 14437", "Place_Name": "Mar Cyriacus at Tella Haphikha", "Modern_Place": "Bağlarbaşı", "Place_Type": "Monastery", "Longitude": 41.456389, "Latitude": 37.456389, "YearLow": 700, "YearHigh": 800, "CenturyS": 8, "CenturyF": 9 }, "geometry": { "type": "Point", "coordinates": [ 41.45639, 37.45639 ] } },
{ "type": "Feature", "properties": { "Wright_Number": 53, "Shelfmark": "BL Add 14437", "Place_Name": "S. Mary Deipara", "Modern_Place": "S. Mary Deipara", "Place_Type": "Monastery", "Longitude": 30.354167, "Latitude": 30.317778, "YearLow": 700, "YearHigh": 800, "CenturyS": 8, "CenturyF": 9 }, "geometry": { "type": "Point", "coordinates": [ 30.35417, 30.31778 ] } },
{ "type": "Feature", "properties": { "Wright_Number": 55, "Shelfmark": "BL Add 14434", "Place_Name": "Amid", "Modern_Place": "Elidolu", "Place_Type": "City", "Longitude": 40.210556, "Latitude": 37.981944, "YearLow": 700, "YearHigh": 800, "CenturyS": 8, "CenturyF": 9 }, "geometry": { "type": "Point", "coordinates": [ 40.21056, 37.98194 ] } },
{ "type": "Feature", "properties": { "Wright_Number": 60, "Shelfmark": "BL Add 14420", "Place_Name": "Convent of Tel Ada", "Modern_Place": "Darat Izza", "Place_Type": "Monastery", "Longitude": 36.848848, "Latitude": 36.255349, "YearLow": 705, "YearHigh": 705, "CenturyS": 8, "CenturyF": 8 }, "geometry": { "type": "Point", "coordinates": [ 36.84885, 36.25535 ] } },
{ "type": "Feature", "properties": { "Wright_Number": 60, "Shelfmark": "BL Add 14420", "Place_Name": "Tagrit", "Modern_Place": "Tikrit", "Place_Type": "City", "Longitude": 43.68, "Latitude": 34.61, "YearLow": 705, "YearHigh": 705, "CenturyS": 8, "CenturyF": 8 }, "geometry": { "type": "Point", "coordinates": [ 43.68, 34.61 ] } },
{ "type": "Feature", "properties": { "Wright_Number": 60, "Shelfmark": "BL Add 14420", "Place_Name": "S. Mary Deipara", "Modern_Place": "S. Mary Deipara", "Place_Type": "Monastery", "Longitude": 30.354167, "Latitude": 30.317778, "YearLow": 705, "YearHigh": 705, "CenturyS": 8, "CenturyF": 8 }, "geometry": { "type": "Point", "coordinates": [ 30.35417, 30.31778 ] } },
{ "type": "Feature", "properties": { "Wright_Number": 63, "Shelfmark": "BL Add 14470", "Place_Name": "S. Mary Deipara", "Modern_Place": "S. Mary Deipara", "Place_Type": "Monastery", "Longitude": 30.354167, "Latitude": 30.317778, "YearLow": 800, "YearHigh": 900, "CenturyS": 9, "CenturyF": 10 }, "geometry": { "type": "Point", "coordinates": [ 30.35417, 30.31778 ] } },
{ "type": "Feature", "properties": { "Wright_Number": 65, "Shelfmark": "BL Add 17124", "Place_Name": "S. Mary Deipara", "Modern_Place": "S. Mary Deipara", "Place_Type": "Monastery", "Longitude": 30.354167, "Latitude": 30.317778, "YearLow": 1516, "YearHigh": 1516, "CenturyS": 16, "CenturyF": 16 }, "geometry": { "type": "Point", "coordinates": [ 30.35417, 30.31778 ] } },
{ "type": "Feature", "properties": { "Wright_Number": 72, "Shelfmark": "BL Add 17113", "Place_Name": "S. Mary Deipara", "Modern_Place": "S. Mary Deipara", "Place_Type": "Monastery", "Longitude": 30.354167, "Latitude": 30.317778, "YearLow": 500, "YearHigh": 700, "CenturyS": 6, "CenturyF": 8 }, "geometry": { "type": "Point", "coordinates": [ 30.35417, 30.31778 ] } },
{ "type": "Feature", "properties": { "Wright_Number": 75, "Shelfmark": "BL Add 12137", "Place_Name": "S. Mary Deipara", "Modern_Place": "S. Mary Deipara", "Place_Type": "Monastery", "Longitude": 30.354167, "Latitude": 30.317778, "YearLow": 1000, "YearHigh": 1100, "CenturyS": 11, "CenturyF": 12 }, "geometry": { "type": "Point", "coordinates": [ 30.35417, 30.31778 ] } },
{ "type": "Feature", "properties": { "Wright_Number": 75, "Shelfmark": "BL Add 12137", "Place_Name": "Convent of Sergius near Balad", "Modern_Place": "Tal Zahib", "Place_Type": "Monastery", "Longitude": 42.726566, "Latitude": 36.514152, "YearLow": 1000, "YearHigh": 1100, "CenturyS": 11, "CenturyF": 12 }, "geometry": { "type": "Point", "coordinates": [ 42.72657, 36.51415 ] } },
{ "type": "Feature", "properties": { "Wright_Number": 75, "Shelfmark": "BL Add 12137", "Place_Name": "Gozarta", "Modern_Place": "Cizre", "Place_Type": "Region", "Longitude": 42.195833, "Latitude": 37.325, "YearLow": 1000, "YearHigh": 1100, "CenturyS": 11, "CenturyF": 12 }, "geometry": { "type": "Point", "coordinates": [ 42.19583, 37.325 ] } },
{ "type": "Feature", "properties": { "Wright_Number": 76, "Shelfmark": "BL Add 14460", "Place_Name": "Tel-Dinawar", "Modern_Place": "Fallujah", "Place_Type": "City", "Longitude": 43.715833, "Latitude": 33.378611, "YearLow": 600, "YearHigh": 600, "CenturyS": 7, "CenturyF": 7 }, "geometry": { "type": "Point", "coordinates": [ 43.71583, 33.37861 ] } },
{ "type": "Feature", "properties": { "Wright_Number": 77, "Shelfmark": "BL Add 14471", "Place_Name": "Nisibis", "Modern_Place": "Nusaybin", "Place_Type": "City", "Longitude": 41.215694, "Latitude": 37.075333, "YearLow": 615, "YearHigh": 615, "CenturyS": 7, "CenturyF": 7 }, "geometry": { "type": "Point", "coordinates": [ 41.21569, 37.07533 ] } },
{ "type": "Feature", "properties": { "Wright_Number": 83, "Shelfmark": "BL Add 12177", "Place_Name": "Mar Sergius", "Modern_Place": "Tal Zahib", "Place_Type": "Monastery", "Longitude": 42.726566, "Latitude": 36.514152, "YearLow": 1189, "YearHigh": 1189, "CenturyS": 12, "CenturyF": 12 }, "geometry": { "type": "Point", "coordinates": [ 42.72657, 36.51415 ] } },
{ "type": "Feature", "properties": { "Wright_Number": 83, "Shelfmark": "BL Add 12177", "Place_Name": "S. Mary Deipara", "Modern_Place": "S. Mary Deipara", "Place_Type": "Monastery", "Longitude": 30.354167, "Latitude": 30.317778, "YearLow": 1518, "YearHigh": 1518, "CenturyS": 16, "CenturyF": 16 }, "geometry": { "type": "Point", "coordinates": [ 30.35417, 30.31778 ] } },
{ "type": "Feature", "properties": { "Wright_Number": 86, "Shelfmark": "BL Add 17983", "Place_Name": "Akurta on Mount Lebanon", "Modern_Place": "Mount Lebanon", "Place_Type": "City", "Longitude": 36.116667, "Latitude": 34.3, "YearLow": 1438, "YearHigh": 1438, "CenturyS": 15, "CenturyF": 15 }, "geometry": { "type": "Point", "coordinates": [ 36.11667, 34.3 ] } },
{ "type": "Feature", "properties": { "Wright_Number": 91, "Shelfmark": "BL Add 17117", "Place_Name": "S. Mary Deipara", "Modern_Place": "S. Mary Deipara", "Place_Type": "Monastery", "Longitude": 30.354167, "Latitude": 30.317778, "YearLow": 400, "YearHigh": 550, "CenturyS": 5, "CenturyF": 6 }, "geometry": { "type": "Point", "coordinates": [ 30.35417, 30.31778 ] } },
{ "type": "Feature", "properties": { "Wright_Number": 97, "Shelfmark": "BL Add 14467", "Place_Name": "S. Mary Deipara", "Modern_Place": "S. Mary Deipara", "Place_Type": "Monastery", "Longitude": 30.354167, "Latitude": 30.317778, "YearLow": 900, "YearHigh": 1000, "CenturyS": 10, "CenturyF": 11 }, "geometry": { "type": "Point", "coordinates": [ 30.35417, 30.31778 ] } },
{ "type": "Feature", "properties": { "Wright_Number": 97, "Shelfmark": "BL Add 14467", "Place_Name": "University of Leipzig", "Modern_Place": "University of Leipzig", "Place_Type": "University", "Longitude": 12.378611, "Latitude": 51.338889, "YearLow": 900, "YearHigh": 1000, "CenturyS": 10, "CenturyF": 11 }, "geometry": { "type": "Point", "coordinates": [ 12.37861, 51.33889 ] } },
{ "type": "Feature", "properties": { "Wright_Number": 110, "Shelfmark": "BL Add 14464", "Place_Name": "Mar Zacchaeus", "Modern_Place": "Raqqa", "Place_Type": "Monastery", "Longitude": 39.0167, "Latitude": 35.95, "YearLow": 583, "YearHigh": 583, "CenturyS": 6, "CenturyF": 6 }, "geometry": { "type": "Point", "coordinates": [ 39.0167, 35.95 ] } },
{ "type": "Feature", "properties": { "Wright_Number": 112, "Shelfmark": "BL Add 17119", "Place_Name": "Convent of Silvanus near Damascus", "Modern_Place": "Damascus", "Place_Type": "Monastery", "Longitude": 36.291944, "Latitude": 33.513056, "YearLow": 500, "YearHigh": 700, "CenturyS": 6, "CenturyF": 8 }, "geometry": { "type": "Point", "coordinates": [ 36.29194, 33.51306 ] } },
{ "type": "Feature", "properties": { "Wright_Number": 119, "Shelfmark": "BL Add 14451", "Place_Name": "S. Mary Deipara", "Modern_Place": "S. Mary Deipara", "Place_Type": "Monastery", "Longitude": 30.354167, "Latitude": 30.317778, "YearLow": 400, "YearHigh": 500, "CenturyS": 5, "CenturyF": 6 }, "geometry": { "type": "Point", "coordinates": [ 30.35417, 30.31778 ] } },
{ "type": "Feature", "properties": { "Wright_Number": 120, "Shelfmark": "BL Add 14469", "Place_Name": "Scete", "Modern_Place": "Wadi El Natrun", "Place_Type": "Region", "Longitude": 30.333333, "Latitude": 30.583333, "YearLow": 936, "YearHigh": 936, "CenturyS": 10, "CenturyF": 10 }, "geometry": { "type": "Point", "coordinates": [ 30.33333, 30.58333 ] } },
{ "type": "Feature", "properties": { "Wright_Number": 126, "Shelfmark": "BL Add 17120", "Place_Name": "S. Mary Deipara", "Modern_Place": "S. Mary Deipara", "Place_Type": "Monastery", "Longitude": 30.354167, "Latitude": 30.317778, "YearLow": 500, "YearHigh": 600, "CenturyS": 6, "CenturyF": 7 }, "geometry": { "type": "Point", "coordinates": [ 30.35417, 30.31778 ] } },
{ "type": "Feature", "properties": { "Wright_Number": 127, "Shelfmark": "BL Add 17121", "Place_Name": "S. Mary Deipara", "Modern_Place": "S. Mary Deipara", "Place_Type": "Monastery", "Longitude": 30.354167, "Latitude": 30.317778, "YearLow": 500, "YearHigh": 600, "CenturyS": 6, "CenturyF": 7 }, "geometry": { "type": "Point", "coordinates": [ 30.35417, 30.31778 ] } },
{ "type": "Feature", "properties": { "Wright_Number": 128, "Shelfmark": "BL Add 14472", "Place_Name": "Gadalta near Mosul", "Modern_Place": "Mosul", "Place_Type": "City", "Longitude": 43.13, "Latitude": 36.34, "YearLow": 624, "YearHigh": 624, "CenturyS": 7, "CenturyF": 7 }, "geometry": { "type": "Point", "coordinates": [ 43.13, 36.34 ] } },
{ "type": "Feature", "properties": { "Wright_Number": 128, "Shelfmark": "BL Add 14472", "Place_Name": "S. Mary Deipara", "Modern_Place": "S. Mary Deipara", "Place_Type": "Monastery", "Longitude": 30.354167, "Latitude": 30.317778, "YearLow": 624, "YearHigh": 624, "CenturyS": 7, "CenturyF": 7 }, "geometry": { "type": "Point", "coordinates": [ 30.35417, 30.31778 ] } },
{ "type": "Feature", "properties": { "Wright_Number": 132, "Shelfmark": "BL Add 14473", "Place_Name": "S. Mary Deipara", "Modern_Place": "S. Mary Deipara", "Place_Type": "Monastery", "Longitude": 30.354167, "Latitude": 30.317778, "YearLow": 800, "YearHigh": 900, "CenturyS": 9, "CenturyF": 10 }, "geometry": { "type": "Point", "coordinates": [ 30.35417, 30.31778 ] } },
{ "type": "Feature", "properties": { "Wright_Number": 134, "Shelfmark": "BL Add 14480", "Place_Name": "S. Mary Deipara", "Modern_Place": "S. Mary Deipara", "Place_Type": "Monastery", "Longitude": 30.354167, "Latitude": 30.317778, "YearLow": 800, "YearHigh": 1000, "CenturyS": 9, "CenturyF": 11 }, "geometry": { "type": "Point", "coordinates": [ 30.35417, 30.31778 ] } },
{ "type": "Feature", "properties": { "Wright_Number": 135, "Shelfmark": "BL Add 14479", "Place_Name": "Be-Aital in Emesa", "Modern_Place": "Homs", "Place_Type": "City", "Longitude": 36.709444, "Latitude": 34.730833, "YearLow": 534, "YearHigh": 534, "CenturyS": 6, "CenturyF": 6 }, "geometry": { "type": "Point", "coordinates": [ 36.70944, 34.73083 ] } },
{ "type": "Feature", "properties": { "Wright_Number": 138, "Shelfmark": "BL Add 14477", "Place_Name": "S. Mary Deipara", "Modern_Place": "S. Mary Deipara", "Place_Type": "Monastery", "Longitude": 30.354167, "Latitude": 30.317778, "YearLow": 500, "YearHigh": 700, "CenturyS": 6, "CenturyF": 8 }, "geometry": { "type": "Point", "coordinates": [ 30.35417, 30.31778 ] } },
{ "type": "Feature", "properties": { "Wright_Number": 141, "Shelfmark": "BL Add 14478", "Place_Name": "Haluga in Serug", "Modern_Place": "Suruç", "Place_Type": "City", "Longitude": 38.426944, "Latitude": 36.976389, "YearLow": 622, "YearHigh": 622, "CenturyS": 7, "CenturyF": 7 }, "geometry": { "type": "Point", "coordinates": [ 38.42694, 36.97639 ] } },
{ "type": "Feature", "properties": { "Wright_Number": 141, "Shelfmark": "BL Add 14478", "Place_Name": "S. Mary Deipara", "Modern_Place": "S. Mary Deipara", "Place_Type": "Monastery", "Longitude": 30.354167, "Latitude": 30.317778, "YearLow": 622, "YearHigh": 622, "CenturyS": 7, "CenturyF": 7 }, "geometry": { "type": "Point", "coordinates": [ 30.35417, 30.31778 ] } },
{ "type": "Feature", "properties": { "Wright_Number": 147, "Shelfmark": "BL Add 17227", "Place_Name": "Scete", "Modern_Place": "Wadi El Natrun", "Place_Type": "Region", "Longitude": 30.333333, "Latitude": 30.583333, "YearLow": 1254, "YearHigh": 1254, "CenturyS": 13, "CenturyF": 13 }, "geometry": { "type": "Point", "coordinates": [ 30.33333, 30.58333 ] } },
{ "type": "Feature", "properties": { "Wright_Number": 147, "Shelfmark": "BL Add 17227", "Place_Name": "S. Mary Deipara", "Modern_Place": "S. Mary Deipara", "Place_Type": "Monastery", "Longitude": 30.354167, "Latitude": 30.317778, "YearLow": 1254, "YearHigh": 1254, "CenturyS": 13, "CenturyF": 13 }, "geometry": { "type": "Point", "coordinates": [ 30.35417, 30.31778 ] } }
]
}
